{
"type": "FeatureCollection",
"name": "hibaku_link",
"features": [
{ "type": "Feature", "properties": { "current_name": "原爆ドーム（広島県産業奨励館）", "old_name": "広島県産業奨励館", "distance": "160m", "owner": "広島市", "structure": "非木造", "address": "広島県広島市中区大手町一丁目10番", "link": "https://www.city.hiroshima.lg.jp/atomicbomb-peace/fukko/1021101/1026920/1026921/1020866.html" }, "geometry": { "type": "Point", "coordinates": [ 132.453674, 34.395477 ] } },
{ "type": "Feature", "properties": { "current_name": "平和記念公園レストハウス（燃料会館）", "old_name": "燃料会館", "distance": "170m", "owner": "広島市", "structure": "非木造", "address": "広島県広島市中区中島町1番1号", "link": "https://www.city.hiroshima.lg.jp/atomicbomb-peace/fukko/1021101/1026920/1026921/1020867.html" }, "geometry": { "type": "Point", "coordinates": [ 132.453537, 34.39307 ] } },
{ "type": "Feature", "properties": { "current_name": "広島アンデルセン（帝国銀行広島支店）", "old_name": "帝国銀行広島支店", "distance": "360m", "owner": "株式会社アンデルセン", "structure": "非木造", "address": "広島県広島市中区本通7番1号", "link": "https://www.city.hiroshima.lg.jp/atomicbomb-peace/fukko/1021101/1026920/1026921/1020788.html" }, "geometry": { "type": "Point", "coordinates": [ 132.458557, 34.39312 ] } },
{ "type": "Feature", "properties": { "current_name": "旧日本銀行広島支店（日本銀行広島支店）", "old_name": "日本銀行広島支店", "distance": "380m", "owner": "広島市", "structure": "非木造", "address": "広島県広島市中区袋町5番21号", "link": "https://www.city.hiroshima.lg.jp/atomicbomb-peace/fukko/1021101/1026920/1026921/1020789.html" }, "geometry": { "type": "Point", "coordinates": [ 132.456512, 34.391468 ] } },
{ "type": "Feature", "properties": { "current_name": "本川小学校平和資料館（本川国民学校）", "old_name": "本川国民学校", "distance": "410m", "owner": "広島市", "structure": "非木造", "address": "広島県広島市中区本川町一丁目5番39号", "link": "https://www.city.hiroshima.lg.jp/atomicbomb-peace/fukko/1021101/1026920/1026921/1020868.html" }, "geometry": { "type": "Point", "coordinates": [ 132.450073, 34.396141 ] } },
{ "type": "Feature", "properties": { "current_name": "袋町小学校平和資料館（袋町国民学校）", "old_name": "袋町国民学校", "distance": "460m", "owner": "広島市", "structure": "非木造", "address": "広島県広島市中区袋町6番36号", "link": "https://www.city.hiroshima.lg.jp/atomicbomb-peace/fukko/1021101/1026920/1026921/1020869.html" }, "geometry": { "type": "Point", "coordinates": [ 132.458191, 34.391743 ] } },
{ "type": "Feature", "properties": { "current_name": "本川公衆便所", "old_name": "本川公衆便所", "distance": "480m", "owner": "広島市", "structure": "非木造", "address": "広島県広島市中区土橋町", "link": "https://www.city.hiroshima.lg.jp/atomicbomb-peace/fukko/1021101/1026920/1026921/1020790.html" }, "geometry": { "type": "Point", "coordinates": [ 132.44812, 34.392944 ] } },
{ "type": "Feature", "properties": { "current_name": "福屋百貨店", "old_name": "福屋百貨店", "distance": "710m", "owner": "株式会社福屋", "structure": "非木造", "address": "広島県広島市中区胡町6番26号", "link": "https://www.city.hiroshima.lg.jp/atomicbomb-peace/fukko/1021101/1026920/1026921/1020791.html" }, "geometry": { "type": "Point", "coordinates": [ 132.462677, 34.393822 ] } },
{ "type": "Feature", "properties": { "current_name": "中国軍管区司令部跡（防空作戦室）（中国軍管区司令部　（防空作戦室））", "old_name": "中国軍管区司令部（防空作戦室）", "distance": "790m", "owner": "広島市", "structure": "非木造", "address": "広島県広島市中区基町21番", "link": "https://www.city.hiroshima.lg.jp/atomicbomb-peace/fukko/1021101/1026920/1026921/1020792.html" }, "geometry": { "type": "Point", "coordinates": [ 132.45932, 34.401283 ] } },
{ "type": "Feature", "properties": { "current_name": "広島市役所旧庁舎資料展示室（広島市役所）", "old_name": "広島市役所", "distance": "1020m", "owner": "広島市", "structure": "非木造", "address": "広島県広島市中区国泰寺町一丁目6番34号", "link": "https://www.city.hiroshima.lg.jp/atomicbomb-peace/fukko/1021101/1026920/1026921/1020870.html" }, "geometry": { "type": "Point", "coordinates": [ 132.454468, 34.385521 ] } },
{ "type": "Feature", "properties": { "current_name": "NTT十日市ビル1棟（広島中央電話局西分局）", "old_name": "広島中央電話局西分局", "distance": "1080m", "owner": "日本電信電話株式会社", "structure": "非木造", "address": "広島県広島市中区西十日市町10番15号", "link": "https://www.city.hiroshima.lg.jp/atomicbomb-peace/fukko/1021101/1026920/1026921/1020871.html" }, "geometry": { "type": "Point", "coordinates": [ 132.444244, 34.398052 ] } },
{ "type": "Feature", "properties": { "current_name": "広島大学旧理学部1号館（広島文理科大学（中国地方総監府））", "old_name": "広島文理科大学（中国地方総監府）", "distance": "1420m", "owner": "広島市", "structure": "非木造", "address": "広島県広島市中区東千田町一丁目1番", "link": "https://www.city.hiroshima.lg.jp/atomicbomb-peace/fukko/1021101/1026920/1026921/1020794.html" }, "geometry": { "type": "Point", "coordinates": [ 132.457977, 34.381664 ] } },
{ "type": "Feature", "properties": { "current_name": "多聞院・鐘楼", "old_name": "多聞院・鐘楼", "distance": "1750m", "owner": "多聞院", "structure": "木造", "address": "広島県広島市南区比治山町7番10号", "link": "https://www.city.hiroshima.lg.jp/atomicbomb-peace/fukko/1021101/1026920/1026921/1020795.html" }, "geometry": { "type": "Point", "coordinates": [ 132.471375, 34.38678 ] } },
{ "type": "Feature", "properties": { "current_name": "鶴羽根神社・手水舎", "old_name": "鶴羽根神社・手水舎", "distance": "1810m", "owner": "鶴羽根神社", "structure": "木造", "address": "広島県広島市東区二葉の里二丁目5番11号", "link": "https://www.city.hiroshima.lg.jp/atomicbomb-peace/fukko/1021101/1026920/1026921/1020796.html" }, "geometry": { "type": "Point", "coordinates": [ 132.471207, 34.40337 ] } },
{ "type": "Feature", "properties": { "current_name": "頼山陽文徳殿", "old_name": "頼山陽文徳殿", "distance": "1820m", "owner": "広島市", "structure": "非木造", "address": "広島県広島市南区比治山町7番1号", "link": "https://www.city.hiroshima.lg.jp/atomicbomb-peace/fukko/1021101/1026920/1026921/1020797.html" }, "geometry": { "type": "Point", "coordinates": [ 132.471771, 34.386078 ] } },
{ "type": "Feature", "properties": { "current_name": "明泉寺・山門", "old_name": "明泉寺・山門", "distance": "1900m", "owner": "明泉寺", "structure": "木造", "address": "広島県広島市南区段原二丁目6番3号", "link": "https://www.city.hiroshima.lg.jp/atomicbomb-peace/fukko/1021101/1026920/1026921/1020798.html" }, "geometry": { "type": "Point", "coordinates": [ 132.474777, 34.389629 ] } },
{ "type": "Feature", "properties": { "current_name": "広島電鉄株式会社千田町変電所・事務所（広島電鉄株式会社千田町変電所・資材倉庫）", "old_name": "広島電鉄株式会社千田町変電所・資材倉庫", "distance": "1920m", "owner": "広島電鉄株式会社", "structure": "非木造", "address": "広島県広島市中区東千田町二丁目9番29号", "link": "https://www.city.hiroshima.lg.jp/atomicbomb-peace/fukko/1021101/1026920/1026921/1020799.html" }, "geometry": { "type": "Point", "coordinates": [ 132.458481, 34.377254 ] } },
{ "type": "Feature", "properties": { "current_name": "浄光寺・山門", "old_name": "浄光寺・山門", "distance": "2100m", "owner": "浄光寺", "structure": "木造", "address": "広島県広島市南区荒神町2番2号", "link": "https://www.city.hiroshima.lg.jp/atomicbomb-peace/fukko/1021101/1026920/1026921/1020800.html" }, "geometry": { "type": "Point", "coordinates": [ 132.478561, 34.395054 ] } },
{ "type": "Feature", "properties": { "current_name": "東照宮", "old_name": "東照宮", "distance": "2100m", "owner": "東照宮", "structure": "木造", "address": "広島県広島市東区二葉の里二丁目1番18号", "link": "https://www.city.hiroshima.lg.jp/atomicbomb-peace/fukko/1021101/1026920/1026921/1020801.html" }, "geometry": { "type": "Point", "coordinates": [ 132.475235, 34.402367 ] } },
{ "type": "Feature", "properties": { "current_name": "安楽寺・本堂", "old_name": "安楽寺・本堂", "distance": "2190m", "owner": "安楽寺", "structure": "木造", "address": "広島県広島市東区牛田本町一丁目5番29号", "link": "https://www.city.hiroshima.lg.jp/atomicbomb-peace/fukko/1021101/1026920/1026921/1020802.html" }, "geometry": { "type": "Point", "coordinates": [ 132.470413, 34.409187 ] } },
{ "type": "Feature", "properties": { "current_name": "歴清社倉庫（久永金紙押紙工場）", "old_name": "久永金紙押紙工場", "distance": "2200m", "owner": "歴清社", "structure": "非木造", "address": "広島県広島市西区三篠町三丁目20番4号", "link": "https://www.city.hiroshima.lg.jp/atomicbomb-peace/fukko/1021101/1026920/1026921/1020803.html" }, "geometry": { "type": "Point", "coordinates": [ 132.455399, 34.414333 ] } },
{ "type": "Feature", "properties": { "current_name": "己斐調整場送水ポンプ室", "old_name": "己斐調整場送水ポンプ室", "distance": "2310m", "owner": "広島市", "structure": "非木造", "address": "広島県広島市西区己斐東一丁目9番2号", "link": "https://www.city.hiroshima.lg.jp/atomicbomb-peace/fukko/1021101/1026920/1026921/1020804.html" }, "geometry": { "type": "Point", "coordinates": [ 132.429947, 34.404339 ] } },
{ "type": "Feature", "properties": { "current_name": "尾長天満宮", "old_name": "尾長天満宮", "distance": "2600m", "owner": "尾長天満宮", "structure": "木造", "address": "広島県広島市東区山根町33番16号", "link": "https://www.city.hiroshima.lg.jp/atomicbomb-peace/fukko/1021101/1026920/1026921/1020805.html" }, "geometry": { "type": "Point", "coordinates": [ 132.480225, 34.403942 ] } },
{ "type": "Feature", "properties": { "current_name": "國前寺", "old_name": "國前寺", "distance": "2600m", "owner": "國前寺", "structure": "木造", "address": "広島県広島市東区山根町32番1号", "link": "https://www.city.hiroshima.lg.jp/atomicbomb-peace/fukko/1021101/1026920/1026921/1020872.html" }, "geometry": { "type": "Point", "coordinates": [ 132.481308, 34.402798 ] } },
{ "type": "Feature", "properties": { "current_name": "真宗学寮・講堂・寮舎", "old_name": "真宗学寮・講堂・寮舎", "distance": "2620m", "owner": "真宗学寮", "structure": "木造", "address": "広島県広島市西区南観音二丁目8番15号", "link": "https://www.city.hiroshima.lg.jp/atomicbomb-peace/fukko/1021101/1026920/1026921/1020806.html" }, "geometry": { "type": "Point", "coordinates": [ 132.430008, 34.382748 ] } },
{ "type": "Feature", "properties": { "current_name": "旧日本通運出汐倉庫1～3号棟（広島陸軍被服支廠）", "old_name": "広島陸軍被服支廠", "distance": "2670m", "owner": "広島県", "structure": "非木造", "address": "広島県広島市南区出汐二丁目4番60号", "link": "https://www.city.hiroshima.lg.jp/atomicbomb-peace/fukko/1021101/1026920/1026921/1020807.html" }, "geometry": { "type": "Point", "coordinates": [ 132.472427, 34.376762 ] } },
{ "type": "Feature", "properties": { "current_name": "旧日本通運出汐倉庫4号棟（広島陸軍被服支廠）", "old_name": "広島陸軍被服支廠", "distance": "2670m", "owner": "中国財務局", "structure": "非木造", "address": "広島県広島市南区出汐二丁目4番60号", "link": "https://www.city.hiroshima.lg.jp/atomicbomb-peace/fukko/1021101/1026920/1026921/1020808.html" }, "geometry": { "type": "Point", "coordinates": [ 132.472427, 34.376762 ] } },
{ "type": "Feature", "properties": { "current_name": "光徳寺・納骨堂", "old_name": "光徳寺・納骨堂", "distance": "2680m", "owner": "光徳寺", "structure": "非木造", "address": "広島県広島市南区皆実町六丁目15番21号", "link": "https://www.city.hiroshima.lg.jp/atomicbomb-peace/fukko/1021101/1026920/1026921/1020809.html" }, "geometry": { "type": "Point", "coordinates": [ 132.46344, 34.371548 ] } },
{ "type": "Feature", "properties": { "current_name": "広島大学附属中・高等学校講堂（広島高等学校講堂）", "old_name": "広島高等学校講堂", "distance": "2690m", "owner": "広島大学", "structure": "非木造", "address": "広島県広島市南区翠一丁目1番1号", "link": "https://www.city.hiroshima.lg.jp/atomicbomb-peace/fukko/1021101/1026920/1026921/1020810.html" }, "geometry": { "type": "Point", "coordinates": [ 132.466599, 34.371956 ] } },
{ "type": "Feature", "properties": { "current_name": "善法寺・本堂", "old_name": "善法寺・本堂", "distance": "2740m", "owner": "善法寺", "structure": "木造", "address": "広島県広島市西区己斐本町三丁目10番8号", "link": "https://www.city.hiroshima.lg.jp/atomicbomb-peace/fukko/1021101/1026920/1026921/1020811.html" }, "geometry": { "type": "Point", "coordinates": [ 132.4254, 34.394802 ] } },
{ "type": "Feature", "properties": { "current_name": "広島大学医学部医学資料館（広島陸軍兵器補給廠）", "old_name": "広島陸軍兵器補給廠", "distance": "2750m", "owner": "広島大学", "structure": "非木造", "address": "広島県広島市南区霞一丁目2番3号", "link": null }, "geometry": { "type": "Point", "coordinates": [ 132.477371, 34.380127 ] } },
{ "type": "Feature", "properties": { "current_name": "蓮照寺・本堂", "old_name": "蓮照寺・本堂", "distance": "2750m", "owner": "蓮照寺", "structure": "木造", "address": "広島県広島市西区己斐中二丁目20番24号", "link": "https://www.city.hiroshima.lg.jp/atomicbomb-peace/fukko/1021101/1026920/1026921/1020813.html" }, "geometry": { "type": "Point", "coordinates": [ 132.425659, 34.400066 ] } },
{ "type": "Feature", "properties": { "current_name": "舟入神社", "old_name": "舟入神社", "distance": "2780m", "owner": "舟入神社", "structure": "木造", "address": "広島県広島市中区舟入南六丁目4番10号", "link": "https://www.city.hiroshima.lg.jp/atomicbomb-peace/fukko/1021101/1026920/1026921/1020815.html" }, "geometry": { "type": "Point", "coordinates": [ 132.435852, 34.374947 ] } },
{ "type": "Feature", "properties": { "current_name": "旭山神社", "old_name": "旭山神社", "distance": "2800m", "owner": "旭山神社", "structure": "木造", "address": "広島県広島市西区己斐西町12番10号", "link": "https://www.city.hiroshima.lg.jp/atomicbomb-peace/fukko/1021101/1026920/1026921/1020818.html" }, "geometry": { "type": "Point", "coordinates": [ 132.425171, 34.39817 ] } },
{ "type": "Feature", "properties": { "current_name": "浜田樹苗園給水塔（日本麻紡績株式会社給水塔）", "old_name": "日本麻紡績株式会社給水塔", "distance": "2830m", "owner": "浜田樹苗園", "structure": "非木造", "address": "広島県広島市西区己斐本町三丁目12番15号", "link": "https://www.city.hiroshima.lg.jp/atomicbomb-peace/fukko/1021101/1026920/1026921/1020819.html" }, "geometry": { "type": "Point", "coordinates": [ 132.425034, 34.393841 ] } },
{ "type": "Feature", "properties": { "current_name": "新庄之宮神社・本殿・拝殿", "old_name": "新庄之宮神社・本殿・拝殿", "distance": "2900m", "owner": "新庄之宮神社", "structure": "木造", "address": "広島県広島市西区大宮一丁目1番9号", "link": "https://www.city.hiroshima.lg.jp/atomicbomb-peace/fukko/1021101/1026920/1026921/1020820.html" }, "geometry": { "type": "Point", "coordinates": [ 132.457764, 34.42028 ] } },
{ "type": "Feature", "properties": { "current_name": "光西寺・本堂", "old_name": "光西寺・本堂", "distance": "2930m", "owner": "光西寺", "structure": "木造", "address": "広島県広島市西区己斐中二丁目23番3号", "link": "https://www.city.hiroshima.lg.jp/atomicbomb-peace/fukko/1021101/1026920/1026921/1020821.html" }, "geometry": { "type": "Point", "coordinates": [ 132.424133, 34.400719 ] } },
{ "type": "Feature", "properties": { "current_name": "妙法寺・本堂・庫裏", "old_name": "妙法寺・本堂・庫裏", "distance": "2940m", "owner": "妙法寺", "structure": "木造", "address": "広島県広島市西区己斐西町45番20号", "link": "https://www.city.hiroshima.lg.jp/atomicbomb-peace/fukko/1021101/1026920/1026921/1020822.html" }, "geometry": { "type": "Point", "coordinates": [ 132.423264, 34.397114 ] } },
{ "type": "Feature", "properties": { "current_name": "浄修院・本堂", "old_name": "浄修院・本堂", "distance": "3010m", "owner": "浄修院", "structure": "木造", "address": "広島県広島市西区己斐西町2番16号", "link": "https://www.city.hiroshima.lg.jp/atomicbomb-peace/fukko/1021101/1026920/1026921/1020823.html" }, "geometry": { "type": "Point", "coordinates": [ 132.422638, 34.398335 ] } },
{ "type": "Feature", "properties": { "current_name": "三瀧寺・想親観音堂・鐘楼・稲荷社・三鬼権現堂・鎮守堂", "old_name": "三瀧寺・想親観音堂・鐘楼・稲荷社・三鬼権現堂・鎮守堂", "distance": "3180m", "owner": "三滝寺", "structure": "木造", "address": "広島県広島市西区三滝山411番地", "link": "https://www.city.hiroshima.lg.jp/atomicbomb-peace/fukko/1021101/1026920/1026921/1020824.html" }, "geometry": { "type": "Point", "coordinates": [ 132.436218, 34.421234 ] } },
{ "type": "Feature", "properties": { "current_name": "広島市郷土資料館（宇品陸軍糧秣支廠（缶詰工場））", "old_name": "宇品陸軍糧秣支廠（缶詰工場）", "distance": "3210m", "owner": "広島市", "structure": "非木造", "address": "広島県広島市南区宇品御幸二丁目6番20号", "link": "https://www.city.hiroshima.lg.jp/atomicbomb-peace/fukko/1021101/1026920/1026921/1020873.html" }, "geometry": { "type": "Point", "coordinates": [ 132.461899, 34.365734 ] } },
{ "type": "Feature", "properties": { "current_name": "観音寺・本堂", "old_name": "観音寺・本堂", "distance": "3260m", "owner": "観音寺", "structure": "木造", "address": "広島県広島市東区山根町14番1号", "link": "https://www.city.hiroshima.lg.jp/atomicbomb-peace/fukko/1021101/1026920/1026921/1020825.html" }, "geometry": { "type": "Point", "coordinates": [ 132.489029, 34.401894 ] } },
{ "type": "Feature", "properties": { "current_name": "稲生神社・本殿・渡殿", "old_name": "稲生神社・本殿・渡殿", "distance": "3340m", "owner": "稲生神社", "structure": "木造", "address": "広島県広島市南区西霞町24番21号", "link": "https://www.city.hiroshima.lg.jp/atomicbomb-peace/fukko/1021101/1026920/1026921/1020826.html" }, "geometry": { "type": "Point", "coordinates": [ 132.483032, 34.376194 ] } },
{ "type": "Feature", "properties": { "current_name": "海神宮", "old_name": "海神宮", "distance": "3360m", "owner": "海神宮", "structure": "木造", "address": "広島県広島市中区江波東二丁目16番1号", "link": "https://www.city.hiroshima.lg.jp/atomicbomb-peace/fukko/1021101/1026920/1026921/1020827.html" }, "geometry": { "type": "Point", "coordinates": [ 132.438828, 34.367668 ] } },
{ "type": "Feature", "properties": { "current_name": "地蔵寺・本堂・庫裏", "old_name": "地蔵寺・本堂・庫裏", "distance": "3440m", "owner": "地蔵寺", "structure": "木造", "address": "広島県広島市南区北大河町23番16号", "link": "https://www.city.hiroshima.lg.jp/atomicbomb-peace/fukko/1021101/1026920/1026921/1020828.html" }, "geometry": { "type": "Point", "coordinates": [ 132.480103, 34.372128 ] } },
{ "type": "Feature", "properties": { "current_name": "真幡神社（黄幡社", "old_name": "真幡神社（黄幡社", "distance": "3440m", "owner": "真幡神社", "structure": "木造", "address": "広島県広島市南区北大河町23番17号", "link": null }, "geometry": { "type": "Point", "coordinates": [ 132.480133, 34.372219 ] } },
{ "type": "Feature", "properties": { "current_name": "海宝寺・山門", "old_name": "海宝寺・山門", "distance": "3470m", "owner": "海宝寺", "structure": "木造", "address": "広島県広島市中区江波南一丁目11番12号", "link": "https://www.city.hiroshima.lg.jp/atomicbomb-peace/fukko/1021101/1026920/1026921/1020830.html" }, "geometry": { "type": "Point", "coordinates": [ 132.43663, 34.367382 ] } },
{ "type": "Feature", "properties": { "current_name": "衣羽神社・本殿・拝殿・手水舎", "old_name": "衣羽神社・本殿・拝殿・手水舎", "distance": "3590m", "owner": "衣羽神社", "structure": "木造", "address": "広島県広島市中区江波南一丁目26番6号", "link": "https://www.city.hiroshima.lg.jp/atomicbomb-peace/fukko/1021101/1026920/1026921/1020831.html" }, "geometry": { "type": "Point", "coordinates": [ 132.436676, 34.366291 ] } },
{ "type": "Feature", "properties": { "current_name": "邇保姫神社・手水舎", "old_name": "邇保姫神社・手水舎", "distance": "3620m", "owner": "邇保姫神社", "structure": "木造", "address": "広島県広島市南区西本浦町12番13号", "link": "https://www.city.hiroshima.lg.jp/atomicbomb-peace/fukko/1021101/1026920/1026921/1020832.html" }, "geometry": { "type": "Point", "coordinates": [ 132.487488, 34.375549 ] } },
{ "type": "Feature", "properties": { "current_name": "広島市江波山気象館（広島地方気象台）", "old_name": "広島地方気象台", "distance": "3630m", "owner": "広島市", "structure": "非木造", "address": "広島県広島市中区江波南一丁目40番1号", "link": "https://www.city.hiroshima.lg.jp/atomicbomb-peace/fukko/1021101/1026920/1026921/1020833.html" }, "geometry": { "type": "Point", "coordinates": [ 132.434631, 34.365463 ] } },
{ "type": "Feature", "properties": { "current_name": "大歳神社・本殿・拝殿", "old_name": "大歳神社・本殿・拝殿", "distance": "3640m", "owner": "大歳神社", "structure": "木造", "address": "広島県広島市西区高須三丁目4番22号", "link": "https://www.city.hiroshima.lg.jp/atomicbomb-peace/fukko/1021101/1026920/1026921/1020834.html" }, "geometry": { "type": "Point", "coordinates": [ 132.415588, 34.3932 ] } },
{ "type": "Feature", "properties": { "current_name": "長束神社・本殿", "old_name": "長束神社・本殿", "distance": "3690m", "owner": "長束神社", "structure": "木造", "address": "広島県広島市安佐南区長束一丁目32番16号", "link": "https://www.city.hiroshima.lg.jp/atomicbomb-peace/fukko/1021101/1026920/1026921/1020835.html" }, "geometry": { "type": "Point", "coordinates": [ 132.461578, 34.426998 ] } },
{ "type": "Feature", "properties": { "current_name": "穴神社", "old_name": "穴神社", "distance": "3840m", "owner": "穴神社", "structure": "木造", "address": "広島県広島市南区丹那町23番11号", "link": "https://www.city.hiroshima.lg.jp/atomicbomb-peace/fukko/1021101/1026920/1026921/1020836.html" }, "geometry": { "type": "Point", "coordinates": [ 132.477737, 34.36536 ] } },
{ "type": "Feature", "properties": { "current_name": "本浦説教所", "old_name": "本浦説教所", "distance": "3950m", "owner": "本浦説教所", "structure": "木造", "address": "広島県広島市南区東本浦町20番", "link": "https://www.city.hiroshima.lg.jp/atomicbomb-peace/fukko/1021101/1026920/1026921/1020838.html" }, "geometry": { "type": "Point", "coordinates": [ 132.4897, 34.37397 ] } },
{ "type": "Feature", "properties": { "current_name": "最勝寺・本堂・門・庫裏（丹那説教所）", "old_name": "丹那説教所", "distance": "3950m", "owner": "最勝寺", "structure": "木造", "address": "広島県広島市南区丹那町37番13号", "link": "https://www.city.hiroshima.lg.jp/atomicbomb-peace/fukko/1021101/1026920/1026921/1020839.html" }, "geometry": { "type": "Point", "coordinates": [ 132.480484, 34.366089 ] } },
{ "type": "Feature", "properties": { "current_name": "覚法寺・本堂・庫裏", "old_name": "覚法寺・本堂・庫裏", "distance": "3960m", "owner": "覚法寺", "structure": "木造", "address": "広島県広島市東区矢賀二丁目3番13号", "link": "https://www.city.hiroshima.lg.jp/atomicbomb-peace/fukko/1021101/1026920/1026921/1020840.html" }, "geometry": { "type": "Point", "coordinates": [ 132.497452, 34.400959 ] } },
{ "type": "Feature", "properties": { "current_name": "蓮光寺・門・観音堂", "old_name": "蓮光寺・門・観音堂", "distance": "4020m", "owner": "蓮光寺", "structure": "木造", "address": "広島県広島市安佐南区長束二丁目1番44号", "link": "https://www.city.hiroshima.lg.jp/atomicbomb-peace/fukko/1021101/1026920/1026921/1020841.html" }, "geometry": { "type": "Point", "coordinates": [ 132.460632, 34.430431 ] } },
{ "type": "Feature", "properties": { "current_name": "熊野神社", "old_name": "熊野神社", "distance": "4150m", "owner": "熊野神社", "structure": "木造", "address": "広島県広島市東区矢賀三丁目9番16号", "link": "https://www.city.hiroshima.lg.jp/atomicbomb-peace/fukko/1021101/1026920/1026921/1020842.html" }, "geometry": { "type": "Point", "coordinates": [ 132.498245, 34.404472 ] } },
{ "type": "Feature", "properties": { "current_name": "マツダ宇品工場（陸軍船舶練習部）", "old_name": "陸軍船舶練習部", "distance": "4160m", "owner": "マツダ株式会社", "structure": "非木造", "address": "広島県広島市南区宇品東五丁目3番", "link": "https://www.city.hiroshima.lg.jp/atomicbomb-peace/fukko/1021101/1026920/1026921/1020843.html" }, "geometry": { "type": "Point", "coordinates": [ 132.471603, 34.358219 ] } },
{ "type": "Feature", "properties": { "current_name": "JR貨物広島車両所（広島鉄道局広島工機部）", "old_name": "広島鉄道局広島工機部", "distance": "4250m", "owner": "日本貨物鉄道株式会社", "structure": "非木造", "address": "広島県広島市東区矢賀五丁目1番1号", "link": "https://www.city.hiroshima.lg.jp/atomicbomb-peace/fukko/1021101/1026920/1026921/1020844.html" }, "geometry": { "type": "Point", "coordinates": [ 132.499039, 34.399254 ] } },
{ "type": "Feature", "properties": { "current_name": "観音寺・本堂・鐘楼", "old_name": "観音寺・本堂・鐘楼", "distance": "4250m", "owner": "観音寺", "structure": "木造", "address": "広島県広島市南区黄金山町12番", "link": "https://www.city.hiroshima.lg.jp/atomicbomb-peace/fukko/1021101/1026920/1026921/1020845.html" }, "geometry": { "type": "Point", "coordinates": [ 132.49025, 34.366234 ] } },
{ "type": "Feature", "properties": { "current_name": "千暁寺・本堂", "old_name": "千暁寺・本堂", "distance": "4310m", "owner": "千暁寺", "structure": "木造", "address": "広島県広島市南区宇品海岸二丁目3番1号", "link": "https://www.city.hiroshima.lg.jp/atomicbomb-peace/fukko/1021101/1026920/1026921/1020846.html" }, "geometry": { "type": "Point", "coordinates": [ 132.461761, 34.356243 ] } },
{ "type": "Feature", "properties": { "current_name": "イエズス会聖ヨハネ修道院（黙想の家）（イエズス会長束修練院）", "old_name": "イエズス会長束修練院", "distance": "4500m", "owner": "イエズス会", "structure": "木造", "address": "広島県広島市安佐南区長束西二丁目1番36号", "link": "https://www.city.hiroshima.lg.jp/atomicbomb-peace/fukko/1021101/1026920/1026921/1020847.html" }, "geometry": { "type": "Point", "coordinates": [ 132.450821, 34.434361 ] } },
{ "type": "Feature", "properties": { "current_name": "竈神社", "old_name": "竈神社", "distance": "4520m", "owner": "竈神社", "structure": "木造", "address": "広島県広島市南区仁保一丁目16番14号", "link": "https://www.city.hiroshima.lg.jp/atomicbomb-peace/fukko/1021101/1026920/1026921/1020848.html" }, "geometry": { "type": "Point", "coordinates": [ 132.49585, 34.371376 ] } },
{ "type": "Feature", "properties": { "current_name": "萬休寺・本堂・山門・庫裏", "old_name": "萬休寺・本堂・山門・庫裏", "distance": "4600m", "owner": "萬休寺", "structure": "木造", "address": "広島県広島市東区中山東三丁目3番3号", "link": "https://www.city.hiroshima.lg.jp/atomicbomb-peace/fukko/1021101/1026920/1026921/1020849.html" }, "geometry": { "type": "Point", "coordinates": [ 132.501144, 34.410297 ] } },
{ "type": "Feature", "properties": { "current_name": "西福寺・本堂・庫裏・山門", "old_name": "西福寺・本堂・庫裏・山門", "distance": "4620m", "owner": "西福寺", "structure": "木造", "address": "広島県広島市南区仁保二丁目12番20号", "link": "https://www.city.hiroshima.lg.jp/atomicbomb-peace/fukko/1021101/1026920/1026921/1020850.html" }, "geometry": { "type": "Point", "coordinates": [ 132.496277, 34.37096 ] } },
{ "type": "Feature", "properties": { "current_name": "旧広島県港湾事務所（宇品警察署）", "old_name": "宇品警察署", "distance": "4640m", "owner": "広島県広島港湾振興事務所", "structure": "木造", "address": "広島県広島市南区宇品海岸三丁目13番", "link": "https://www.city.hiroshima.lg.jp/atomicbomb-peace/fukko/1021101/1026920/1026921/1020851.html" }, "geometry": { "type": "Point", "coordinates": [ 132.463928, 34.353664 ] } },
{ "type": "Feature", "properties": { "current_name": "龍宮神社", "old_name": "龍宮神社", "distance": "4780m", "owner": "龍宮神社", "structure": "木造", "address": "広島県広島市西区草津東一丁目15番7号", "link": "https://www.city.hiroshima.lg.jp/atomicbomb-peace/fukko/1021101/1026920/1026921/1020852.html" }, "geometry": { "type": "Point", "coordinates": [ 132.407532, 34.376827 ] } },
{ "type": "Feature", "properties": { "current_name": "熊野神社・本殿", "old_name": "熊野神社・本殿", "distance": "4800m", "owner": "熊野神社", "structure": "木造", "address": "広島県広島市安佐南区祇園一丁目20番1号", "link": "https://www.city.hiroshima.lg.jp/atomicbomb-peace/fukko/1021101/1026920/1026921/1020853.html" }, "geometry": { "type": "Point", "coordinates": [ 132.461258, 34.437469 ] } },
{ "type": "Feature", "properties": { "current_name": "慈光寺・山門", "old_name": "慈光寺・山門", "distance": "4930m", "owner": "慈光寺", "structure": "木造", "address": "広島県広島市西区草津東三丁目7番25号", "link": "https://www.city.hiroshima.lg.jp/atomicbomb-peace/fukko/1021101/1026920/1026921/1020854.html" }, "geometry": { "type": "Point", "coordinates": [ 132.403442, 34.381958 ] } },
{ "type": "Feature", "properties": { "current_name": "鷺森神社", "old_name": "鷺森神社", "distance": "4930m", "owner": "鷺森神社", "structure": "木造", "address": "広島県広島市西区草津東三丁目1番8号", "link": "https://www.city.hiroshima.lg.jp/atomicbomb-peace/fukko/1021101/1026920/1026921/1020855.html" }, "geometry": { "type": "Point", "coordinates": [ 132.404068, 34.382454 ] } },
{ "type": "Feature", "properties": { "current_name": "海藏寺・本堂・山門", "old_name": "海藏寺・本堂・山門", "distance": "4950m", "owner": "海藏寺", "structure": "木造", "address": "広島県広島市西区田方一丁目1番3号", "link": "https://www.city.hiroshima.lg.jp/atomicbomb-peace/fukko/1021101/1026920/1026921/1020856.html" }, "geometry": { "type": "Point", "coordinates": [ 132.402939, 34.382519 ] } },
{ "type": "Feature", "properties": { "current_name": "光明寺（日宇那説教所）", "old_name": "日宇那説教所", "distance": "4960m", "owner": "光明寺", "structure": "木造", "address": "広島県広島市南区日宇那町13番6号", "link": "https://www.city.hiroshima.lg.jp/atomicbomb-peace/fukko/1021101/1026920/1026921/1020857.html" }, "geometry": { "type": "Point", "coordinates": [ 132.491989, 34.362064 ] } },
{ "type": "Feature", "properties": { "current_name": "狐瓜木神社・本殿・拝殿", "old_name": "狐瓜木神社・本殿・拝殿", "distance": "4980m", "owner": "狐瓜木神社", "structure": "木造", "address": "広島県広島市東区戸坂くるめ木一丁目1番20号", "link": "https://www.city.hiroshima.lg.jp/atomicbomb-peace/fukko/1021101/1026920/1026921/1020858.html" }, "geometry": { "type": "Point", "coordinates": [ 132.48027, 34.433693 ] } },
{ "type": "Feature", "properties": { "current_name": "浄教寺・本堂・山門・南門・経堂", "old_name": "浄教寺・本堂・山門・南門・経堂", "distance": "4980m", "owner": "浄教寺", "structure": "木造", "address": "広島県広島市西区草津本町1番22号", "link": "https://www.city.hiroshima.lg.jp/atomicbomb-peace/fukko/1021101/1026920/1026921/1020859.html" }, "geometry": { "type": "Point", "coordinates": [ 132.403091, 34.380604 ] } },
{ "type": "Feature", "properties": { "current_name": "教専寺・本堂・経蔵", "old_name": "教専寺・本堂・経蔵", "distance": "4990m", "owner": "教専寺", "structure": "木造", "address": "広島県広島市西区草津本町15番14号", "link": "https://www.city.hiroshima.lg.jp/atomicbomb-peace/fukko/1021101/1026920/1026921/1020860.html" }, "geometry": { "type": "Point", "coordinates": [ 132.403183, 34.380283 ] } },
{ "type": "Feature", "properties": { "current_name": "専念寺・本堂・鐘楼", "old_name": "専念寺・本堂・鐘楼", "distance": "4990m", "owner": "専念寺", "structure": "木造", "address": "広島県広島市安佐南区山本七丁目15番17号", "link": "https://www.city.hiroshima.lg.jp/atomicbomb-peace/fukko/1021101/1026920/1026921/1020861.html" }, "geometry": { "type": "Point", "coordinates": [ 132.44516, 34.438557 ] } },
{ "type": "Feature", "properties": { "current_name": "胡子神社・本殿・拝殿", "old_name": "胡子神社・本殿・拝殿", "distance": "5000m", "owner": "胡子神社", "structure": "木造", "address": "広島県広島市西区草津浜町7番17号", "link": "https://www.city.hiroshima.lg.jp/atomicbomb-peace/fukko/1021101/1026920/1026921/1020862.html" }, "geometry": { "type": "Point", "coordinates": [ 132.403656, 34.378323 ] } },
{ "type": "Feature", "properties": { "current_name": "稲生神社", "old_name": "稲生神社", "distance": "5000m", "owner": "稲生神社", "structure": "木造", "address": "広島県広島市西区草津本町14番12号", "link": "https://www.city.hiroshima.lg.jp/atomicbomb-peace/fukko/1021101/1026920/1026921/1020863.html" }, "geometry": { "type": "Point", "coordinates": [ 132.402573, 34.380276 ] } },
{ "type": "Feature", "properties": { "current_name": "草津八幡宮・本殿・拝殿（草津八幡神社・本殿・拝殿）", "old_name": "草津八幡神社・本殿・拝殿", "distance": "5000m", "owner": "草津八幡神社", "structure": "木造", "address": "広島県広島市西区田方一丁目11番18号", "link": "https://www.city.hiroshima.lg.jp/atomicbomb-peace/fukko/1021101/1026920/1026921/1020864.html" }, "geometry": { "type": "Point", "coordinates": [ 132.401642, 34.382339 ] } },
{ "type": "Feature", "properties": { "current_name": "西楽寺・本堂", "old_name": "西楽寺・本堂", "distance": "5000m", "owner": "西楽寺", "structure": "木造", "address": "広島県広島市西区草津本町12番2号", "link": "https://www.city.hiroshima.lg.jp/atomicbomb-peace/fukko/1021101/1026920/1026921/1020865.html" }, "geometry": { "type": "Point", "coordinates": [ 132.402451, 34.380119 ] } },
{ "type": "Feature", "properties": { "current_name": "広島逓信病院旧外来棟（広島逓信病院外来棟）", "old_name": "広島逓信病院外来棟", "distance": "1370m", "owner": "広島市", "structure": "非木造", "address": "広島県広島市中区東白島町19番16号", "link": "https://www.city.hiroshima.lg.jp/atomicbomb-peace/fukko/1021101/1026920/1026921/1020793.html" }, "geometry": { "type": "Point", "coordinates": [ 132.465317, 34.403069 ] } },
{ "type": "Feature", "properties": { "current_name": "旧濾過調整池上屋（牛田水源地濾過調整池上屋）", "old_name": "牛田水源地濾過調整池上屋", "distance": "2770m", "owner": "広島市", "structure": "非木造", "address": "広島県広島市東区牛田新町一丁目8番1号", "link": "https://www.city.hiroshima.lg.jp/atomicbomb-peace/fukko/1021101/1026920/1026921/1020814.html" }, "geometry": { "type": "Point", "coordinates": [ 132.467117, 34.416939 ] } },
{ "type": "Feature", "properties": { "current_name": "広島市水道資料館（牛田水源地送水ポンプ室）", "old_name": "牛田水源地送水ポンプ室", "distance": "2800m", "owner": "広島市", "structure": "非木造", "address": "広島県広島市東区牛田新町一丁目8番1号", "link": "https://www.city.hiroshima.lg.jp/atomicbomb-peace/fukko/1021101/1026920/1026921/1020816.html" }, "geometry": { "type": "Point", "coordinates": [ 132.467117, 34.416939 ] } },
{ "type": "Feature", "properties": { "current_name": "水道資料館別館ビデオルーム（牛田水源地送水量水室）", "old_name": "牛田水源地送水量水室", "distance": "2800m", "owner": "広島市", "structure": "非木造", "address": "広島県広島市東区牛田新町一丁目8番1号", "link": "https://www.city.hiroshima.lg.jp/atomicbomb-peace/fukko/1021101/1026920/1026921/1020817.html" }, "geometry": { "type": "Point", "coordinates": [ 132.467117, 34.416939 ] } },
{ "type": "Feature", "properties": { "current_name": "不動院", "old_name": "不動院", "distance": "3900m", "owner": "不動院", "structure": "木造", "address": "広島県広島市東区牛田新町三丁目4番9号", "link": "https://www.city.hiroshima.lg.jp/atomicbomb-peace/fukko/1021101/1026920/1026921/1020837.html" }, "geometry": { "type": "Point", "coordinates": [ 132.469894, 34.426987 ] } },
{ "type": "Feature", "properties": { "current_name": "旧日本通運出汐倉庫1～3号棟（広島陸軍被服支廠）", "old_name": "広島陸軍被服支廠", "distance": "2670m", "owner": "広島県", "structure": "非木造", "address": "広島県広島市南区出汐二丁目4番60号", "link": "https://www.city.hiroshima.lg.jp/atomicbomb-peace/fukko/1021101/1026920/1026921/1020807.html" }, "geometry": { "type": "Point", "coordinates": [ 132.472427, 34.376762 ] } },
{ "type": "Feature", "properties": { "current_name": "旧日本通運出汐倉庫4号棟（広島陸軍被服支廠）", "old_name": "広島陸軍被服支廠", "distance": "2670m", "owner": "中国財務局", "structure": "非木造", "address": "広島県広島市南区出汐二丁目4番60号", "link": "https://www.city.hiroshima.lg.jp/atomicbomb-peace/fukko/1021101/1026920/1026921/1020808.html" }, "geometry": { "type": "Point", "coordinates": [ 132.472427, 34.376762 ] } },
{ "type": "Feature", "properties": { "current_name": "旧濾過調整池上屋（牛田水源地濾過調整池上屋）", "old_name": "牛田水源地濾過調整池上屋", "distance": "2770m", "owner": "広島市", "structure": "非木造", "address": "広島県広島市東区牛田新町一丁目8番1号", "link": "https://www.city.hiroshima.lg.jp/atomicbomb-peace/fukko/1021101/1026920/1026921/1020814.html" }, "geometry": { "type": "Point", "coordinates": [ 132.467117, 34.416939 ] } },
{ "type": "Feature", "properties": { "current_name": "広島市水道資料館（牛田水源地送水ポンプ室）", "old_name": "牛田水源地送水ポンプ室", "distance": "2800m", "owner": "広島市", "structure": "非木造", "address": "広島県広島市東区牛田新町一丁目8番1号", "link": "https://www.city.hiroshima.lg.jp/atomicbomb-peace/fukko/1021101/1026920/1026921/1020816.html" }, "geometry": { "type": "Point", "coordinates": [ 132.467117, 34.416939 ] } },
{ "type": "Feature", "properties": { "current_name": "水道資料館別館ビデオルーム（牛田水源地送水量水室）", "old_name": "牛田水源地送水量水室", "distance": "2800m", "owner": "広島市", "structure": "非木造", "address": "広島県広島市東区牛田新町一丁目8番1号", "link": "https://www.city.hiroshima.lg.jp/atomicbomb-peace/fukko/1021101/1026920/1026921/1020817.html" }, "geometry": { "type": "Point", "coordinates": [ 132.467117, 34.416939 ] } },
{ "type": "Feature", "properties": { "current_name": "旧濾過調整池上屋（牛田水源地濾過調整池上屋）", "old_name": "牛田水源地濾過調整池上屋", "distance": "2770m", "owner": "広島市", "structure": "非木造", "address": "広島県広島市東区牛田新町一丁目8番1号", "link": "https://www.city.hiroshima.lg.jp/atomicbomb-peace/fukko/1021101/1026920/1026921/1020814.html" }, "geometry": { "type": "Point", "coordinates": [ 132.467117, 34.416939 ] } },
{ "type": "Feature", "properties": { "current_name": "広島市水道資料館（牛田水源地送水ポンプ室）", "old_name": "牛田水源地送水ポンプ室", "distance": "2800m", "owner": "広島市", "structure": "非木造", "address": "広島県広島市東区牛田新町一丁目8番1号", "link": "https://www.city.hiroshima.lg.jp/atomicbomb-peace/fukko/1021101/1026920/1026921/1020816.html" }, "geometry": { "type": "Point", "coordinates": [ 132.467117, 34.416939 ] } },
{ "type": "Feature", "properties": { "current_name": "水道資料館別館ビデオルーム（牛田水源地送水量水室）", "old_name": "牛田水源地送水量水室", "distance": "2800m", "owner": "広島市", "structure": "非木造", "address": "広島県広島市東区牛田新町一丁目8番1号", "link": "https://www.city.hiroshima.lg.jp/atomicbomb-peace/fukko/1021101/1026920/1026921/1020817.html" }, "geometry": { "type": "Point", "coordinates": [ 132.467117, 34.416939 ] } }
]
}
